"id_vivienda","area_total","pisos","habitaciones","precio_uf","estaciona","bodega","antiguedad","tipo_vivienda","nombre_propiedad","descripcion","condicion","tipo_operacion","banos","area_construida","latitud","longitud","ubicacion","tipo_subsidio","fecha_creacion","links_contacto","id_vecindario","id_comuna","id_ciudad","id_region"
"MLC1490914931","59","","3","9.94736842105263","","","","0","Maestra Gabriela","Los Cipreses 3422","Nuevo","true","1","56","-33.5809289","-70.6063903","0101000020E610000025C74219CFA651C09066D1E05BCA40C0","","2024-11-08 19:01:34.534991","[""https://departamento.mercadolibre.cl/MLC-1490914931-maestra-gabriela-_JM""]","12","3","3","1"
"MLC1377864533","214","","4","3839","","","","1","Ciudad Del Sol","Av. Concha y Toro Paradero 35 1/2","Nuevo","false","3","123.22","-33.5958291","-70.5821487","0101000020E61000002CFA9EEC41A551C0A840C12044CC40C0","","2024-11-08 19:01:35.364641","[""https://casa.mercadolibre.cl/MLC-1377864533-ciudad-del-sol-_JM""]","13","3","3","1"
"MLC534098052","216.46","","3","3558","","","","1","Condominio Newén","Juan de Dios Malebrán 3595","Nuevo","false","3","84.84","-33.577758","-70.5930304","0101000020E61000002A62C735F4A551C04E8061F9F3C940C0","","2024-11-08 19:01:36.182966","[""https://casa.mercadolibre.cl/MLC-534098052-condominio-newen-_JM""]","29","3","3","1"
"MLC1377848443","73.54","","3","3209","","","","1","Casas Hacienda Conquistadores Puente Alto","San Carlos Norte 02128","Nuevo","false","2","73.54","-33.5956423","-70.5516614","0101000020E6100000CCDD9D6B4EA351C09F4EC3013ECC40C0","","2024-11-08 19:01:36.985252","[""https://casa.mercadolibre.cl/MLC-1377848443-casas-hacienda-conquistadores-puente-alto-_JM""]","26","3","3","1"
"MLC1377763409","136","","3","3219","","","","1","Casas Hacienda Conquistadores Puente Alto L","San Carlos Norte 02128","Nuevo","false","3","73.54","-33.5954144","-70.5501083","0101000020E6100000867071F934A351C0A3C8FF8936CC40C0","","2024-11-08 19:01:37.781803","[""https://casa.mercadolibre.cl/MLC-1377763409-casas-hacienda-conquistadores-puente-alto-l-_JM""]","26","3","3","1"
"MLC1396733385","87.28","","3","4890","","","","1","Condominio Tocornal","Juan de Dios Malebrán 1101","Nuevo","false","2","71.13","-33.604069","-70.5877116","0101000020E6100000B65E1D119DA551C083C30B2252CD40C0","","2024-11-08 19:01:38.584598","[""https://casa.mercadolibre.cl/MLC-1396733385-condominio-tocornal-_JM""]","13","3","3","1"
"MLC1378459409","197.45","","3","5547","","","","1","Condominio Las Dalias","Av. El Peral 06896","Nuevo","false","3","113.9","-33.5739901","-70.5452866","0101000020E61000009C7CC4F9E5A251C028DDF18178C940C0","","2024-11-08 19:01:39.399673","[""https://casa.mercadolibre.cl/MLC-1378459409-condominio-las-dalias-_JM""]","24","3","3","1"
"MLC1378421595","200","","3","5093","","","","1","Cumbres Del Peral  Condominio Las Camelias","Avenida El Peral 06896","Nuevo","false","3","150","-33.5737871","-70.5441661","0101000020E6100000E1C50C9ED3A251C0EFAE0EDB71C940C0","","2024-11-08 19:01:40.198696","[""https://casa.mercadolibre.cl/MLC-1378421595-cumbres-del-peral-condominio-las-camelias-_JM""]","24","3","3","1"
"MLC1017424641","105.71","","3","5123","","","","1","Mirador Vizcachas Cordillera","San Carlos 7616","Nuevo","false","3","105.71","-33.5924224","-70.5353669","0101000020E610000019B7877343A251C07BB5487FD4CB40C0","","2024-11-08 19:01:40.990967","[""https://casa.mercadolibre.cl/MLC-1017424641-mirador-vizcachas-cordillera-_JM""]","28","3","3","1"
"MLC1614865302","72","","3","3121","","","","0","San Agustín","Parque Central 06580, Puente Alto, Chile","Nuevo","false","2","68","-33.5615693","-70.5489204","0101000020E6100000DD86078321A351C004F8B880E1C740C0","","2024-11-08 19:01:41.786786","[""https://departamento.mercadolibre.cl/MLC-1614865302-san-agustin-_JM""]","45","3","3","1"
"MLC1600018546","68","","3","2912","","","","0","Condominio San Fernando","Los Viñedos 6412","Nuevo","false","2","64","-33.5615821","-70.5513045","0101000020E6100000CF68AB9248A351C06FC218ECE1C740C0","","2024-11-08 19:01:42.578477","[""https://departamento.mercadolibre.cl/MLC-1600018546-condominio-san-fernando-_JM""]","45","3","3","1"
"MLC2414503966","73.17","","3","2760","","","","0","Parque San Javier","Avenida Paseo Pie Andino 2465, Puente Alto, Chile","Nuevo","false","2","68.47","-33.5922531","-70.5522467","0101000020E6100000BBF48A0258A351C031BA17F3CECB40C0","","2024-11-08 19:01:43.378665","[""https://departamento.mercadolibre.cl/MLC-2414503966-parque-san-javier-_JM""]","26","3","3","1"
"MLC1371643801","275.98","","3","3684","","","","1","Paso Alto","Av. Camilo Henríquez 625","Nuevo","false","2","90.5","-33.5975878","-70.5317676","0101000020E6100000A2C4F87A08A251C08ABECCC17DCC40C0","","2024-11-08 19:01:44.201039","[""https://casa.mercadolibre.cl/MLC-1371643801-paso-alto-_JM""]","28","3","3","1"
"MLC2426737208","176","","3","3684","","","","1","Paso Alto Nueva Etapa","Av. Camilo Henríquez 302","Nuevo","false","2","76.42","-33.5974679","-70.5317838","0101000020E6100000BA62EBBE08A251C0747401D479CC40C0","","2024-11-08 19:01:44.998239","[""https://casa.mercadolibre.cl/MLC-2426737208-paso-alto-nueva-etapa-_JM""]","28","3","3","1"
"MLC1375541677","322.12","","5","4559","","","","1","Altos Del Valle","Tobalaba 1050","Nuevo","false","3","124.29","-33.5909433","-70.5429745","0101000020E6100000F7031E18C0A251C029A5B107A4CB40C0","","2024-11-08 19:01:45.799274","[""https://casa.mercadolibre.cl/MLC-1375541677-altos-del-valle-_JM""]","26","3","3","1"
"MLC1375572047","248","","4","4730","","","","1","San Francisco","Calle Alberto Sartori 698, Puente Alto, Chile","Nuevo","false","4","104.77","-33.5979142","-70.5412075","0101000020E61000006536C824A3A251C03168D77388CC40C0","","2024-11-08 19:01:46.594389","[""https://casa.mercadolibre.cl/MLC-1375572047-san-francisco-_JM""]","26","3","3","1"
"MLC1588536266","84.95","","3","3390","","","","0","Alto Las Perdices Departamentos","Avenida Diego Portales 7080","Nuevo","false","2","79.85","-33.561693","-70.5407259","0101000020E61000006926CE409BA251C031B2648EE5C740C0","","2024-11-08 19:01:47.452299","[""https://departamento.mercadolibre.cl/MLC-1588536266-alto-las-perdices-departamentos-_JM""]","45","3","3","1"
"MLC1588548690","240","","3","4898","","","","1","Altavista Del Peñón","El Peral 7284","Nuevo","false","3","111.9","-33.5751551","-70.5392257","0101000020E61000006AAA82AC82A251C05650ACAE9EC940C0","","2024-11-08 19:01:48.270219","[""https://casa.mercadolibre.cl/MLC-1588548690-altavista-del-penon-_JM""]","24","3","3","1"
"MLC1599105442","74.62","","3","2827","","","","0","Cumbres Del Peral  Condominio Los Lirios","Avenida el Peral 06898","Nuevo","false","2","66.37","-33.5754685","-70.5413378","0101000020E6100000ABC54C47A5A251C068B0A9F3A8C940C0","","2024-11-08 19:01:49.088231","[""https://departamento.mercadolibre.cl/MLC-1599105442-cumbres-del-peral-condominio-los-lirios-_JM""]","24","3","3","1"
"MLC1564457526","91","","3","3629","","","","1","Altos Del Peñón","Cardenal Oviedo s/n","Nuevo","false","3","62","-33.5972588","-70.5509631","0101000020E610000061F3BBFA42A351C0C59FF2F972CC40C0","","2024-11-08 19:01:49.912622","[""https://casa.mercadolibre.cl/MLC-1564457526-altos-del-penon-_JM""]","26","3","3","1"
"MLC1378408971","122.23","","3","3084","","","","0","Condominio Los Jacintos","Av. El Peral 06896","Nuevo","false","2","75.84","-33.5739901","-70.5452866","0101000020E61000009C7CC4F9E5A251C028DDF18178C940C0","","2024-11-08 19:01:50.721709","[""https://departamento.mercadolibre.cl/MLC-1378408971-condominio-los-jacintos-_JM""]","24","3","3","1"
"MLC1564728362","58.13","","3","3080","","","","0","Condominio Altos Del Peñón","Cardenal Oviedo 570","Nuevo","false","2","56","-33.603063","-70.5435228","0101000020E610000058A8DA13C9A251C0BD361B2B31CD40C0","","2024-11-08 19:01:51.449989","[""https://departamento.mercadolibre.cl/MLC-1564728362-condominio-altos-del-penon-_JM""]","","3","3","1"
"MLC2551553844","195.07","","3","3990","","","","1","Conjunto Bicentenario","Independencia 1111","Nuevo","false","3","79.46","-33.6017304","-70.5890997","0101000020E610000057653ACFB3A551C02781728005CD40C0","","2024-11-08 19:01:52.273401","[""https://casa.mercadolibre.cl/MLC-2551553844-conjunto-bicentenario-_JM""]","13","3","3","1"
"MLC1422987373","160.14","","3","9073","","","","0","Alto Sierra - Etapa Ii","Av. Las Condes 13500","Nuevo","false","3","126.74","-33.3697382","-70.5059247","0101000020E6100000452FFE1161A051C07C8AD29453AF40C0","","2024-11-08 19:01:53.828258","[""https://departamento.mercadolibre.cl/MLC-1422987373-alto-sierra-etapa-ii-_JM""]","150","49","1","1"
"MLC2728424606","140","","3","17.3684210526316","","","","1","Casa Las Brisas Del Parque Norte Id: 102543","Las Brisas del Parque Norte","Usado","true","3","69","-33.6054739","-70.5384167","0101000020E6100000B287516B75A251C0718A332B80CD40C0","","2024-11-08 19:01:54.589514","[""https://casa.mercadolibre.cl/MLC-2728424606-casa-las-brisas-del-parque-norte-id-102543-_JM""]","","3","3","1"
"MLC2725593160","127","","3","17.8947368421053","","","","1","Casa Pasaje Geysers Del Tatio Oriente Id: 138553","Pasaje Geysers del Tatio Oriente","Nuevo","true","3","127","-33.590177","-70.5448497","0101000020E610000011AF46D1DEA251C0FAEC80EB8ACB40C0","","2024-11-08 19:01:55.378184","[""https://casa.mercadolibre.cl/MLC-2725593160-casa-pasaje-geysers-del-tatio-oriente-id-138553-_JM""]","26","3","3","1"
"MLC2755256370","100","","3","16.5789473684211","","","","1","Casa Avenida México Id: 132464","Avenida México","Usado","true","2","70","-33.5905676","-70.5610359","0101000020E610000071981E03E8A351C0E20918B897CB40C0","","2024-11-08 19:01:56.173689","[""https://casa.mercadolibre.cl/MLC-2755256370-casa-avenida-mexico-id-132464-_JM""]","27","3","3","1"
"MLC1481093945","58.67","","3","2900","","","","0","Venta Departamento En Condominio.","Luis Matte Larraín 315, Puente Alto, Chile","Usado","false","2","61.06","-33.5859913","-70.5845227","0101000020E61000004111E6D168A551C0CA9E4EC301CB40C0","","2024-11-08 19:01:56.957156","[""https://departamento.mercadolibre.cl/MLC-1481093945-venta-departamento-en-condominio-_JM""]","29","3","3","1"
"MLC1534584905","200","","3","4980","","","","1","Casa En Venta De 3d 2b Puertezuelo De Tobalaba","Cond. Portezuelo de Tobalaba | Casa en Venta 3D 2B | Walker and Partners","Nuevo","false","2","120","-33.5846331","-70.5506681","0101000020E6100000D41C6A253EA351C05D54E641D5CA40C0","","2024-11-08 19:01:57.714838","[""https://casa.mercadolibre.cl/MLC-1534584905-casa-en-venta-de-3d-2b-puertezuelo-de-tobalaba-_JM""]","","3","3","1"
"MLC2766332840","157","","3","13.1578947368421","","","","1","Casa San Ignacio Id: 140539","San Ignacio","Nuevo","true","1","80","-33.5847586","-70.5674773","0101000020E61000003B2E4F8C51A451C00287AB5ED9CA40C0","","2024-11-08 19:01:58.528732","[""https://casa.mercadolibre.cl/MLC-2766332840-casa-san-ignacio-id-140539-_JM""]","29","3","3","1"
"MLC2694607374","165","","3","4200","","","","1","Casa En Venta De 3 Dorm. En Puente Alto","Portezuelo del Cepo","Usado","false","2","68","-33.5875197","-70.530801","0101000020E6100000C8EBC1A4F8A151C0BCA074D833CB40C0","","2024-11-08 19:01:59.377827","[""https://casa.mercadolibre.cl/MLC-2694607374-casa-en-venta-de-3-dorm-en-puente-alto-_JM""]","28","3","3","1"
"MLC2769881122","130","","3","4900","","","","1","Preciosa Casa En Tranquilo Pasaje, Muy Conectada","El Trevo 3860, 8.2209e+06 - 8.2212e+06 Puente Alto, Región Metropolitana, Chile","Usado","false","2","120","-33.5714332","-70.5822451","0101000020E610000066B0F38043A551C0A0EC1CB924C940C0","","2024-11-08 19:02:00.202514","[""https://casa.mercadolibre.cl/MLC-2769881122-preciosa-casa-en-tranquilo-pasaje-muy-conectada-_JM""]","32","3","3","1"
"MLC2750616934","300","","4","6090","","","","1","Gran Quincho Y Piscina - Como Nueva","La Montura, Puente Alto, Chile","Usado","false","3","140","-33.5838252","-70.5135792","0101000020E6100000F9F94A7BDEA051C0534ABEC8BACA40C0","","2024-11-08 19:02:00.992877","[""https://casa.mercadolibre.cl/MLC-2750616934-gran-quincho-y-piscina-como-nueva-_JM""]","28","3","3","1"
"MLC2767877758","200","","3","4447.36842105263","","","","1","Vendo Casa En Las Perdices, Puente Alto","El Pitotoy","Usado","false","2","80","-33.5531019","-70.5522457","0101000020E6100000D33659FE57A351C080ED050BCCC640C0","","2024-11-08 19:02:01.829557","[""https://casa.mercadolibre.cl/MLC-2767877758-vendo-casa-en-las-perdices-puente-alto-_JM""]","25","3","3","1"
"MLC2439452554","68.42","","3","4890","","","","1","Proyecto De 48 Casas En Condominio - Entrega 4°trimest. 2024","Juan de Dios Malebrán & Domingo Tocornal","Nuevo","false","2","68.42","-33.6040943","-70.5877017","0101000020E61000006E5397E79CA551C09A1947F652CD40C0","","2024-11-08 19:02:02.672274","[""https://casa.mercadolibre.cl/MLC-2439452554-proyecto-de-48-casas-en-condominio-entrega-4trimest-2024-_JM""]","13","3","3","1"
"MLC2744815104","48","","3","921.052631578947","","","","0","Departamento 3 Dormitorios 1 Matrimonial Y 2 Pequeños","Avenida Juanita 01430","","false","1","48","-33.6285629","-70.6119766","0101000020E6100000B5BAE69F2AA751C04D7DC5BF74D040C0","","2024-11-08 19:02:03.491993","[""https://departamento.mercadolibre.cl/MLC-2744815104-departamento-3-dormitorios-1-matrimonial-y-2-pequenos-_JM""]","52","3","3","1"
"MLC2744338458","1000","","10","43780","","","","1","Esquina Plaza Pte Alto 5 Casas 1000mts2","Santo Domingo 290","","false","10","1000","-33.609647","-70.5776431","0101000020E6100000A5D0C31AF8A451C0618DB3E908CE40C0","","2024-11-08 19:02:04.30432","[""https://casa.mercadolibre.cl/MLC-2744338458-esquina-plaza-pte-alto-5-casas-1000mts2-_JM""]","35","3","3","1"
"MLC1541867219","315","","3","6289.47368421053","","","","1","Casa En Venta De 3 Dorm. En Puente Alto","HACIENDA EL PEÑÓN","Usado","false","2","94","-33.5833865","-70.5113508","0101000020E610000024B2B4F8B9A051C0C636A968ACCA40C0","","2024-11-08 19:02:05.10855","[""https://casa.mercadolibre.cl/MLC-1541867219-casa-en-venta-de-3-dorm-en-puente-alto-_JM""]","28","3","3","1"
"MLC1363690017","450","","5","9868.42105263158","","","","1","Rebajada! Loteo Las Vizcachas, Hermosa Casa 5d 3b ","Loteo Las Vizcachas, PRECIO REBAJADO","Usado","false","3","233","-33.5983558","-70.5119053","0101000020E61000008A89720EC3A051C09B2F40EC96CC40C0","","2024-11-08 19:02:05.900748","[""https://casa.mercadolibre.cl/MLC-1363690017-rebajada-loteo-las-vizcachas-hermosa-casa-5d-3b-_JM""]","28","3","3","1"
"MLC2594695176","366","","5","7500","","","","1","Casa En Venta De 5 Dorm. En Hacienda El Peñón, Puente Alto","HACIENDA EL PEÑON","Nuevo","false","4","134","-33.5876458","-70.5097285","0101000020E6100000B45549649FA051C0DD5042FA37CB40C0","","2024-11-08 19:02:06.690989","[""https://casa.mercadolibre.cl/MLC-2594695176-casa-en-venta-de-5-dorm-en-hacienda-el-penon-puente-alto-_JM""]","28","3","3","1"
"MLC1501272365","800","","3","11289.4736842105","","","","1","Loteo Las Vizcachas, Hermosa Casa Con Hermoso Jardin","camino san jose de maipo 06997","Nuevo","false","3","140","-33.5981085","-70.5118626","0101000020E6100000EAC2595BC2A051C0D57ABFD18ECC40C0","","2024-11-08 19:02:07.498987","[""https://casa.mercadolibre.cl/MLC-1501272365-loteo-las-vizcachas-hermosa-casa-con-hermoso-jardin-_JM""]","28","3","3","1"
"MLC1486110283","273.83","","4","8500","","","","1","Hacienda El Peñón, Se Vende Hermosa Casa En Condominio ","Hacienda el Peñón, Puente Alto","Usado","false","3","125","-33.5833788","-70.5113633","0101000020E6100000FA77222DBAA051C001971128ACCA40C0","","2024-11-08 19:02:08.300781","[""https://casa.mercadolibre.cl/MLC-1486110283-hacienda-el-penon-se-vende-hermosa-casa-en-condominio-_JM""]","28","3","3","1"
"MLC1467854147","320","","3","6026.31578947368","","","","1","Hacienda El Peñon, Bella Casa Modelo Arrayan En Condominio","Hacienda El Peñon","Usado","false","2","94","-33.5913733","-70.509503","0101000020E6100000B08D78B29BA051C0229DCB1EB2CB40C0","","2024-11-08 19:02:09.095609","[""https://casa.mercadolibre.cl/MLC-1467854147-hacienda-el-penon-bella-casa-modelo-arrayan-en-condominio-_JM""]","28","3","3","1"
"MLC1461999037","212","","3","5394.73684210526","","","","1","Hacienda El Peñon, Excelente Precio","LA tejas","Usado","false","3","83","-33.5833788","-70.5113633","0101000020E6100000FA77222DBAA051C001971128ACCA40C0","","2024-11-08 19:02:09.920969","[""https://casa.mercadolibre.cl/MLC-1461999037-hacienda-el-penon-excelente-precio-_JM""]","28","3","3","1"
"MLC1442223157","375","","5","8600","","","","1","Hacienda El Peñón, Se Vende Hermosa Casa En Condominio ","Hacienda el Peñón, Puente Alto","Usado","false","4","126","-33.5833788","-70.5113633","0101000020E6100000FA77222DBAA051C001971128ACCA40C0","","2024-11-08 19:02:10.735632","[""https://casa.mercadolibre.cl/MLC-1442223157-hacienda-el-penon-se-vende-hermosa-casa-en-condominio-_JM""]","28","3","3","1"
"MLC1541802631","300","","4","6578.94736842105","","","","1","Casa En Venta De 4 Dorm. En Puente Alto","HACIENDA EL PEÑÓN","Nuevo","false","3","108","-33.5833865","-70.5113508","0101000020E610000024B2B4F8B9A051C0C636A968ACCA40C0","","2024-11-08 19:02:11.523749","[""https://casa.mercadolibre.cl/MLC-1541802631-casa-en-venta-de-4-dorm-en-puente-alto-_JM""]","28","3","3","1"
"MLC1659648262","309","","3","8900","","","","1","Rebajada, Hacienda El Peñón, Hermosa Casa En Condominio ","Hacienda el Peñón, Puente Alto","Usado","false","0","132","-33.5833788","-70.5113633","0101000020E6100000FA77222DBAA051C001971128ACCA40C0","","2024-11-08 19:02:12.324748","[""https://casa.mercadolibre.cl/MLC-1659648262-rebajada-hacienda-el-penon-hermosa-casa-en-condominio-_JM""]","28","3","3","1"
"MLC1538070461","320","","3","7052.63157894737","","","","1","Casa En Venta De 3 Dorm. En Puente Alto, Hacienda El Peñon","HACIENDA EL PEÑON","Usado","false","3","122","-33.5833865","-70.5113508","0101000020E610000024B2B4F8B9A051C0C636A968ACCA40C0","","2024-11-08 19:02:13.124246","[""https://casa.mercadolibre.cl/MLC-1538070461-casa-en-venta-de-3-dorm-en-puente-alto-hacienda-el-penon-_JM""]","28","3","3","1"
"MLC2756946524","509","","4","13890","","","","1","Casa Alvaro Casanova Id: 106279","Alvaro Casanova","Usado","false","4","164","-33.4611429","-70.5201485","0101000020E61000001024EF1C4AA151C02C2405BB06BB40C0","","2024-11-08 20:35:21.345817","[""https://casa.mercadolibre.cl/MLC-2756946524-casa-alvaro-casanova-id-106279-_JM""]","157","14","1","1"
"MLC1538136379","500","","5","7236.84210526316","","","","1","Casa En Venta De 5 Dorm. En Puente Alto, Loteo Las Vizcachas","LOTEO LAS VIZCACHAS","Usado","false","2","140","-33.5981085","-70.5118626","0101000020E6100000EAC2595BC2A051C0D57ABFD18ECC40C0","","2024-11-08 19:02:13.920796","[""https://casa.mercadolibre.cl/MLC-1538136379-casa-en-venta-de-5-dorm-en-puente-alto-loteo-las-vizcachas-_JM""]","28","3","3","1"
"MLC2707837758","241","","4","5526.31578947368","","","","1","Casa En Venta De 4 Dorm. En Puente Alto, Hacienda El Peñon, ","HACIENDA EL PEÑON","Usado","false","3","93","-33.5876458","-70.5097285","0101000020E6100000B45549649FA051C0DD5042FA37CB40C0","","2024-11-08 19:02:14.711207","[""https://casa.mercadolibre.cl/MLC-2707837758-casa-en-venta-de-4-dorm-en-puente-alto-hacienda-el-penon-_JM""]","28","3","3","1"
"MLC1533669687","228","","3","6500","","","","1","Amplia Casa En Sector De Las Vizcachas","Puente Alto","Usado","false","2","121","-33.6019249","-70.5154778","0101000020E610000019349996FDA051C0F41208E00BCD40C0","","2024-11-08 19:02:15.548785","[""https://casa.mercadolibre.cl/MLC-1533669687-amplia-casa-en-sector-de-las-vizcachas-_JM""]","28","3","3","1"
"MLC1538937423","102","","3","2894.73684210526","","","","1","San Carlos / Camilo Henríquez","San Carlos / Camilo Henríquez","Usado","false","2","66","-33.5950985","-70.5478052","0101000020E61000000AA58A3D0FA351C007B309302CCC40C0","","2024-11-08 19:02:17.052911","[""https://casa.mercadolibre.cl/MLC-1538937423-san-carlos-camilo-henriquez-_JM""]","26","3","3","1"
"MLC1537796229","120","","2","1447.36842105263","","","","1","Casa Ampliada Y Regularizada Al Lado De Av Gabriela ","CALLE CRETA NORTE CON LUIS MATTE","Usado","false","1","100","-33.5869685","-70.6038218","0101000020E610000029E73004A5A651C01EA4A7C821CB40C0","","2024-11-08 19:02:17.844303","[""https://casa.mercadolibre.cl/MLC-1537796229-casa-ampliada-y-regularizada-al-lado-de-av-gabriela-_JM""]","12","3","3","1"
"MLC2732029086","164","","3","3500","","","","1","Casa En Venta De 3 Dorm. En Puente Alto","Gabriela Oriente","Usado","false","1","59","-33.5755617","-70.562053","0101000020E6100000996725ADF8A351C0432A7B01ACC940C0","","2024-11-08 19:02:18.636479","[""https://casa.mercadolibre.cl/MLC-2732029086-casa-en-venta-de-3-dorm-en-puente-alto-_JM""]","29","3","3","1"
"MLC1507384277","114","","3","2605.26315789474","","","","1","Casa En Venta En Puente Alto","Av. Gabriela","Usado","false","1","105","-33.5826146","-70.6018117","0101000020E61000006976381584A651C008967E1D93CA40C0","","2024-11-08 19:02:19.45105","[""https://casa.mercadolibre.cl/MLC-1507384277-casa-en-venta-en-puente-alto-_JM""]","12","3","3","1"
"MLC1537682299","66","","2","1973.68421052632","","","","1","Casa En Venta De 2 Dorm. En Puente Alto","Piscis","Usado","false","1","46","-33.5927225","-70.5568295","0101000020E6100000ADFC3218A3A351C03B8DB454DECB40C0","","2024-11-08 19:02:20.301771","[""https://casa.mercadolibre.cl/MLC-1537682299-casa-en-venta-de-2-dorm-en-puente-alto-_JM""]","26","3","3","1"
"MLC1507748067","124","","4","3052.63157894737","","","","1","Casa En Cond. Los Coigues, Av Ejercito Libertador 3899","Avenida Ejercito Libertador 3899, Puente Alto, Chile","Usado","false","3","78","-33.5748693","-70.5984753","0101000020E6100000AF3D586B4DA651C0BA7C355195C940C0","","2024-11-08 19:02:21.094047","[""https://casa.mercadolibre.cl/MLC-1507748067-casa-en-cond-los-coigues-av-ejercito-libertador-3899-_JM""]","12","3","3","1"
"MLC2400120968","120","","3","3700","","","","1","Av. Independencia 864 Casa 49 Condominio Otoñales Uno","Av. Independencia 864, Puente Alto, Chile","Usado","false","2","80","-33.6022934","-70.5867149","0101000020E6100000DCE4A6BC8CA551C05FCC3BF317CD40C0","","2024-11-08 19:02:21.892739","[""https://casa.mercadolibre.cl/MLC-2400120968-av-independencia-864-casa-49-condominio-otonales-uno-_JM""]","13","3","3","1"
"MLC1493270125","200","","7","3289.47368421053","","","","1","Casa En Venta De 7 Dorm. En Puente Alto","Domingo Tocornal/ Ignacio Domeyko","Nuevo","false","2","128","-33.601878","-70.5680215","0101000020E6100000317BD9765AA451C048179B560ACD40C0","","2024-11-08 19:02:22.697484","[""https://casa.mercadolibre.cl/MLC-1493270125-casa-en-venta-de-7-dorm-en-puente-alto-_JM""]","13","3","3","1"
"MLC2385896614","120","","3","2315.78947368421","","","","1","Oportunidad , Casa Pasaje Cerrado, Se Aceptan Ofertas!","Los Claveles 3300 - 3600, Puente Alto, Chile","Usado","false","1","50","-33.5740479","-70.5693944","0101000020E6100000A2A135F570A451C0326BCE667AC940C0","","2024-11-08 19:02:23.545025","[""https://casa.mercadolibre.cl/MLC-2385896614-oportunidad-casa-pasaje-cerrado-se-aceptan-ofertas-_JM""]","29","3","3","1"
"MLC2470500288","159","","4","4500","","","","1","Oportunidad Ángel Pimentel.  A Pasos Del Metro.-","Ángel Pimentel 38, 8.1501e+06 - 8.1504e+06 Puente Alto, Región Metropolitana, Chile","Usado","false","3","95","-33.5892891","-70.5803782","0101000020E6100000ED139BEA24A551C0D43142D36DCB40C0","","2024-11-08 19:02:24.336493","[""https://casa.mercadolibre.cl/MLC-2470500288-oportunidad-angel-pimentel-a-pasos-del-metro--_JM""]","27","3","3","1"
"MLC2761144322","195","","5","5100","","","","1","Casa 5 Dorm Y 3 Baños,  Condominio Terrazas De Puente Alto","Avenida El Peral 7078, Puente Alto, Chile","Usado","false","3","106","-33.5750787","-70.5413317","0101000020E610000070F2B62DA5A251C02790C82D9CC940C0","","2024-11-08 19:02:25.141131","[""https://casa.mercadolibre.cl/MLC-2761144322-casa-5-dorm-y-3-banos-condominio-terrazas-de-puente-alto-_JM""]","24","3","3","1"
"MLC2768094092","150","","3","17.3684210526316","","","","1","Hermosa Casa A Pasos De Mall Toabalaba. Acceso Controlado","Zaragoza 4178","Usado","true","1","60","-33.5639466","-70.5562855","0101000020E61000004C6F7F2E9AA351C05FD8F5662FC840C0","","2024-11-08 19:02:25.924609","[""https://casa.mercadolibre.cl/MLC-2768094092-hermosa-casa-a-pasos-de-mall-toabalaba-acceso-controlado-_JM""]","49","3","3","1"
"MLC2746265084","153","","4","5450","","","","1","Casa 3 Pisos Ciudad Del Sol Metro Las Mercedes.","ciudad del sol, puente alto,","Usado","false","3","153","-33.6008081","-70.5934614","0101000020E61000000E1C8645FBA551C00156A247E7CC40C0","","2024-11-08 19:02:26.748703","[""https://casa.mercadolibre.cl/MLC-2746265084-casa-3-pisos-ciudad-del-sol-metro-las-mercedes-_JM""]","13","3","3","1"
"MLC2696982718","167","","4","5300","","","","1","Casa En Venta De 4 Dorm. En Puente Alto","Av. San Carlos/ Av. Ejercito Libertador","Usado","false","3","108","-33.6301808","-70.5898981","0101000020E61000003EDEF5E3C0A551C09748B3C3A9D040C0","","2024-11-08 19:02:27.499266","[""https://casa.mercadolibre.cl/MLC-2696982718-casa-en-venta-de-4-dorm-en-puente-alto-_JM""]","","3","3","1"
"MLC1535575029","269","","3","5500","","","","1","Casa Cercana A Mall Plaza Tobalaba","C. Sánchez Fontecilla 3855","Usado","false","2","95","-33.5686869","-70.5513086","0101000020E61000003AC0DDA348A351C0F2947ABBCAC840C0","","2024-11-08 19:02:28.299757","[""https://casa.mercadolibre.cl/MLC-1535575029-casa-cercana-a-mall-plaza-tobalaba-_JM""]","24","3","3","1"
"MLC2737895924","115","","2","2110","","","","1","Casa Puente Alto","Tolpan 728","Usado","false","1","45","-33.5775945","-70.5912296","0101000020E6100000571BADB4D6A551C0BBECD79DEEC940C0","","2024-11-08 19:02:29.09159","[""https://casa.mercadolibre.cl/MLC-2737895924-casa-puente-alto-_JM""]","29","3","3","1"
"MLC1534081149","70","","3","13.6842105263158","","","","0","Arriendo Lindo Departamento En Condominio, Puente Alto","Av. Diego Portales 6300 - 6600","Usado","true","2","67","-33.5600995","-70.5487976","0101000020E6100000E407F87F1FA351C0C3802557B1C740C0","","2024-11-08 19:02:29.90775","[""https://departamento.mercadolibre.cl/MLC-1534081149-arriendo-lindo-departamento-en-condominio-puente-alto-_JM""]","45","3","3","1"
"MLC1507459931","175","","3","4400","","","","1","Casa Pukara De Lasana Interior Id: 39752","Pukara de Lasana Interior","Usado","false","3","96","-33.5894089","-70.5466587","0101000020E6100000BAA4C574FCA251C055BC36C071CB40C0","","2024-11-08 19:02:30.698233","[""https://casa.mercadolibre.cl/MLC-1507459931-casa-pukara-de-lasana-interior-id-39752-_JM""]","26","3","3","1"
"MLC2730468020","157","","3","2894.73684210526","","","","1","Casa San Ignacio Id: 140539","San Ignacio","Nuevo","false","1","80","-33.5847586","-70.5674773","0101000020E61000003B2E4F8C51A451C00287AB5ED9CA40C0","","2024-11-08 19:02:31.492729","[""https://casa.mercadolibre.cl/MLC-2730468020-casa-san-ignacio-id-140539-_JM""]","29","3","3","1"
"MLC2725103646","71","","3","2473.68421052632","","","","1","Casa De Dos Pisos En Venta- Sector Residencial Puente Alto","Pje. Cabo Metalqui 1800","Usado","false","2","65","-33.5739611","-70.6034649","0101000020E61000002C723E2B9FA651C08DD6AC8E77C940C0","","2024-11-08 19:02:32.28152","[""https://casa.mercadolibre.cl/MLC-2725103646-casa-de-dos-pisos-en-venta-sector-residencial-puente-alto-_JM""]","12","3","3","1"
"MLC2732053062","84","","4","15.7894736842105","","","","1","Arriendo Impecable Casa En Barrio Tranquilo Y Familiar","ARRIENDO IMPECABLE CASA EN BARRIO TRANQUILO Y FAMILIAR","Usado","true","1","84","-33.5703121","-70.5713251","0101000020E610000092F8269790A451C0AD01A5FCFFC840C0","","2024-11-08 19:02:33.068482","[""https://casa.mercadolibre.cl/MLC-2732053062-arriendo-impecable-casa-en-barrio-tranquilo-y-familiar-_JM""]","32","3","3","1"
"MLC2663335060","168","","3","3050","","","","1","Vendo Casa  De 3 Dormitorios. Av Central-pte Alto","Avenida Central 625, Puente Alto, Chile","Usado","false","2","103","-33.6073129","-70.5850458","0101000020E6100000616AF06371A551C02EF8D96DBCCD40C0","","2024-11-08 19:02:33.882494","[""https://casa.mercadolibre.cl/MLC-2663335060-vendo-casa-de-3-dormitorios-av-central-pte-alto-_JM""]","35","3","3","1"
"MLC1505186759","129","","3","2894.73684210526","","","","1","Casa 3d-1b Venta Puente Alto","Los Jardines 1877, Puente Alto, Chile","Usado","false","1","65","-33.5735921","-70.5605949","0101000020E61000007B736EC9E0A351C03A5F47776BC940C0","","2024-11-08 19:02:34.675983","[""https://casa.mercadolibre.cl/MLC-1505186759-casa-3d-1b-venta-puente-alto-_JM""]","29","3","3","1"
"MLC1536789351","210","","4","36.8421052631579","","","","1","Rebajada. Se Arrienda Bella Casa En Las Vizcachas","C. E 0310","Usado","true","3","483.5","-33.6004104","-70.509003","0101000020E610000038A4518193A051C0D2167C3FDACC40C0","","2024-11-08 19:02:35.463708","[""https://casa.mercadolibre.cl/MLC-1536789351-rebajada-se-arrienda-bella-casa-en-las-vizcachas-_JM""]","28","3","3","1"
"MLC1517547171","58","","3","2220","","","","0","Departamento En Tercer Piso, Cuenta Con 3d-1b Y Box. ","Pie Andino 2726","Usado","false","1","58","-33.5894434","-70.5514303","0101000020E6100000812150A24AA351C0E9EB9EE172CB40C0","","2024-11-08 19:02:36.187921","[""https://departamento.mercadolibre.cl/MLC-1517547171-departamento-en-tercer-piso-cuenta-con-3d-1b-y-box-_JM""]","","3","3","1"
"MLC2693377752","200","","3","23.1578947368421","","","","1","Amr Propiedades Arrienda Casa Ciudad Del Sol 3 D Estar 3b 2e","Avenida Ejército Libertador","Usado","true","3","120","-33.6186004","-70.5907037","0101000020E61000001448E416CEA551C071A5434C2ECF40C0","","2024-11-08 19:02:37.002772","[""https://casa.mercadolibre.cl/MLC-2693377752-amr-propiedades-arrienda-casa-ciudad-del-sol-3-d-estar-3b-2e-_JM""]","52","3","3","1"
"MLC2761203944","246","","4","5000","","","","1","Casa Esquina, Sector Las Perdices, Puente Alto","Las Perdices","Usado","false","2","79","-33.5602267","-70.5395414","0101000020E6100000A3F5A6D887A251C04A6C2D82B5C740C0","","2024-11-08 19:02:37.800146","[""https://casa.mercadolibre.cl/MLC-2761203944-casa-esquina-sector-las-perdices-puente-alto-_JM""]","25","3","3","1"
"MLC2761100920","189","","8","3157.89473684211","","","","1","Casa Amplia, Ideal Para 2 Familias, Puente Alto","Domingo Tocornal & Avenida Ejército Libertador","Usado","false","2","140","-33.6049117","-70.5929974","0101000020E61000003CE75DABF3A551C0E03B20BF6DCD40C0","","2024-11-08 19:02:38.535635","[""https://casa.mercadolibre.cl/MLC-2761100920-casa-amplia-ideal-para-2-familias-puente-alto-_JM""]","","3","3","1"
"MLC2758432614","160","","3","4736","","","","1","Casa Sector Faldeos De La Viña, Puente Alto","Santa Rosa del Peral - Camino Sta Rosa del Peral 4662, 8.1711e+06 - 8.1714e+06 Puente Alto, Región Metropolitana, Chile","Usado","false","2","86","-33.5563348","-70.5477346","0101000020E6100000CF786C150EA351C038D08DFA35C740C0","","2024-11-08 19:02:39.331339","[""https://casa.mercadolibre.cl/MLC-2758432614-casa-sector-faldeos-de-la-vina-puente-alto-_JM""]","25","3","3","1"
"MLC1538140179","115","","3","3684.21052631579","","","","1","Casa Completamente Remodelada En Puente Alto ","Volcán Huelemolle 900 - 1200","Usado","false","2","77","-33.5925578","-70.5430421","0101000020E610000079F6A633C1A251C0AFFE19EFD8CB40C0","","2024-11-08 19:02:40.166812","[""https://casa.mercadolibre.cl/MLC-1538140179-casa-completamente-remodelada-en-puente-alto-_JM""]","26","3","3","1"
"MLC2761139542","98","","3","2184.21052631579","","","","1","Casa 2 Pisos, Sector Don Ramon, Puente Alto","Canela Alta 2943","Usado","false","2","56","-33.5814026","-70.5522047","0101000020E6100000A4CC615257A351C0996780666BCA40C0","","2024-11-08 19:02:40.965693","[""https://casa.mercadolibre.cl/MLC-2761139542-casa-2-pisos-sector-don-ramon-puente-alto-_JM""]","24","3","3","1"
"MLC1543247689","71","","2","1921.05263157895","","","","1","Casa 2 Pisos, Sector Don Ramón, Puente Alto","Avenida Las Nieves Oriente & Luis Matte Larraín","Usado","false","2","54","-33.5845399","-70.5576131","0101000020E61000008E14DBEEAFA351C083DA1434D2CA40C0","","2024-11-08 19:02:41.718705","[""https://casa.mercadolibre.cl/MLC-1543247689-casa-2-pisos-sector-don-ramon-puente-alto-_JM""]","","3","3","1"
"MLC2737640656","154","","4","5600","","","","1","Excelente Casa - Calle Alto Pinar - Metro Las Mercedes","Alto Pinar 1220, Puente Alto, Chile","Usado","false","3","127","-33.5994471","-70.5818817","0101000020E610000004E9BD8C3DA551C04D17BDAEBACC40C0","","2024-11-08 19:02:42.511646","[""https://casa.mercadolibre.cl/MLC-2737640656-excelente-casa-calle-alto-pinar-metro-las-mercedes-_JM""]","13","3","3","1"
"MLC1536515555","304","","4","3223.68421052632","","","","1","Excelente Amplia Casa Pobl. Papelera - Puente Alto","Pje. Quince 0748","Usado","false","2","119","-33.6174484","-70.5659898","0101000020E6100000A737482D39A451C0D87B968C08CF40C0","","2024-11-08 19:02:43.405374","[""https://casa.mercadolibre.cl/MLC-1536515555-excelente-amplia-casa-pobl-papelera-puente-alto-_JM""]","35","3","3","1"
"MLC1544633385","96","","3","3394.73684210526","","","","1","Se Vende Hermosa Casa 3d 2b Espacio Para 4 Autos Pte.alto ","Av. Jorge Ross Ossa 1600","Usado","false","2","55","-33.5973044","-70.5976509","0101000020E6100000337B8FE93FA651C0E2E0777874CC40C0","","2024-11-08 19:02:44.183826","[""https://casa.mercadolibre.cl/MLC-1544633385-se-vende-hermosa-casa-3d-2b-espacio-para-4-autos-ptealto-_JM""]","","3","3","1"
"MLC1536505139","72","","3","1834.21052631579","","","","1","Excelente Casa Psje. Mallarauco - Luis Matte Larraín","Mallarauco 2761, Puente Alto, Chile","Usado","false","1","60","-33.5854362","-70.5609107","0101000020E61000007E1EFEF5E5A351C07F72CA92EFCA40C0","","2024-11-08 19:02:45.026593","[""https://casa.mercadolibre.cl/MLC-1536505139-excelente-casa-psje-mallarauco-luis-matte-larrain-_JM""]","27","3","3","1"
"MLC1544043379","80","","3","10.5263157894737","","","","1","Arriendo Casa , Cerca Plaza Pte Alto","Julio Fontecha 572","Usado","true","1","60","-33.6042782","-70.5586116","0101000020E6100000A44ADE4AC0A351C0C757F1FC58CD40C0","","2024-11-08 19:02:45.831542","[""https://casa.mercadolibre.cl/MLC-1544043379-arriendo-casa-cerca-plaza-pte-alto-_JM""]","35","3","3","1"
"MLC1518712963","704","","3","13000","","","","1","Excelente Propiedad Aptitud Comercial - Calle Teniente Bello","Calle Teniente Bello 144, Cordillera, Puente Alto, Chile","Usado","false","2","704","-33.605449","-70.5791895","0101000020E6100000F12BD67011A551C0AD32535A7FCD40C0","","2024-11-08 19:02:46.637762","[""https://casa.mercadolibre.cl/MLC-1518712963-excelente-propiedad-aptitud-comercial-calle-teniente-bello-_JM""]","13","3","3","1"
"MLC2728379858","78","","4","2421.05263157895","","","","0","Excelente Departamento Metro Las Mercedes - Puente Alto ","Domingo Tocornal 091","Usado","false","1","78","-33.6031018","-70.5760503","0101000020E610000077D61302DEA451C05194957032CD40C0","","2024-11-08 19:02:47.425418","[""https://departamento.mercadolibre.cl/MLC-2728379858-excelente-departamento-metro-las-mercedes-puente-alto-_JM""]","13","3","3","1"
"MLC2747947484","150","","2","2200","","","","1","Casa De Un Piso En Pasaje Tranquilo","El Partidor 1500, Puente Alto, Chile","Usado","false","1","60","-33.6068174","-70.5973701","0101000020E6100000EEC6CC4F3BA651C066D24B31ACCD40C0","","2024-11-08 19:02:48.295754","[""https://casa.mercadolibre.cl/MLC-2747947484-casa-de-un-piso-en-pasaje-tranquilo-_JM""]","52","3","3","1"
"MLC2719504738","130","","3","11.8421052631579","","","","1","Casa Esquina En Arriendo 3d-1b Puente Alto","Alberto Magno 2400 - 2700","Usado","true","1","130","-33.5789474","-70.5541878","0101000020E6100000E6351BD077A351C0578DCAF21ACA40C0","","2024-11-08 19:02:49.113871","[""https://casa.mercadolibre.cl/MLC-2719504738-casa-esquina-en-arriendo-3d-1b-puente-alto-_JM""]","24","3","3","1"
"MLC2725547282","134","","3","3026.31578947368","","","","1","Casa Ideal, Tranquilidad Y Comodidad","AVDA MEXICO, 2153","Usado","false","2","134","-33.5905676","-70.5610359","0101000020E610000071981E03E8A351C0E20918B897CB40C0","","2024-11-08 19:02:49.945849","[""https://casa.mercadolibre.cl/MLC-2725547282-casa-ideal-tranquilidad-y-comodidad-_JM""]","27","3","3","1"
"MLC2681428400","160","","2","11.5789473684211","","","","1","Arriendo Casa Condominio La Capilla 5  Puente Alto","Punta Harvey 3830","Usado","true","1","160","-33.5754833","-70.6010858","0101000020E6100000C345933078A651C07472D06FA9C940C0","","2024-11-08 19:02:50.747886","[""https://casa.mercadolibre.cl/MLC-2681428400-arriendo-casa-condominio-la-capilla-5-puente-alto-_JM""]","12","3","3","1"
"MLC2706616442","233","","3","5920","","","","1","Oportunidad De Ser Propietario De Una Casa Con Gran Terreno.","Mapulemu 6900 - 7200, Puente Alto, Chile","Usado","false","2","79","-33.5769877","-70.5400972","0101000020E610000051AAD8F390A251C0DDD8A2BBDAC940C0","","2024-11-08 19:02:51.558682","[""https://casa.mercadolibre.cl/MLC-2706616442-oportunidad-de-ser-propietario-de-una-casa-con-gran-terreno-_JM""]","24","3","3","1"
"MLC1501996595","102","","3","4210.52631578947","","","","1","Casa Ciudad Del Este - 3d + 3b - Puente Alto","Sendero La Huella Oriente 3900 - 4200, Puente Alto, Chile","Usado","false","3","66","-33.5677057","-70.5501678","0101000020E6100000FC1301F335A351C05BA09394AAC840C0","","2024-11-08 19:02:52.398479","[""https://casa.mercadolibre.cl/MLC-1501996595-casa-ciudad-del-este-3d-3b-puente-alto-_JM""]","24","3","3","1"
"MLC2554466578","135","","3","3263.15789473684","","","","1","Casa Brisas Del Maipo Puente Alto Precio Bajo Valor Mercado","pasaje Villa franca poniente  276","","false","2","135","-33.6065148","-70.5409681","0101000020E6100000796BAA389FA251C01E45E746A2CD40C0","","2024-11-08 19:02:53.712688","[""https://casa.mercadolibre.cl/MLC-2554466578-casa-brisas-del-maipo-puente-alto-precio-bajo-valor-mercado-_JM""]","28","3","3","1"
"MLC1533617133","187","","3","3520","","","","1","Cercano Mall Tobalaba Hacia El Oriente ","Avenida Gabriela Oriente, Puente Alto, Chile","Usado","false","1","67","-33.5761476","-70.5656621","0101000020E61000008C05CFCE33A451C09ED55D34BFC940C0","","2024-11-08 19:02:54.597867","[""https://casa.mercadolibre.cl/MLC-1533617133-cercano-mall-tobalaba-hacia-el-oriente-_JM""]","29","3","3","1"
"MLC2650905328","220","","3","7500","","","","1","Casa Venta De 3 Dorm, 3baños, 2 Estacionamiento, Puente Alto","Salvador Allende 0515","Usado","false","3","192","-33.6201742","-70.5844763","0101000020E61000006072480F68A551C0576941DE61CF40C0","","2024-11-08 19:02:55.416707","[""https://casa.mercadolibre.cl/MLC-2650905328-casa-venta-de-3-dorm-3banos-2-estacionamiento-puente-alto-_JM""]","35","3","3","1"